City_ID,City,Lat,Lng,Max Temp,Humidity,Cloudiness,Windspeed,Country,Date
0,kodiak,57.79,-152.4072,42.31,81,100,6.91,US,1683407187
1,carnarvon,-24.8667,113.6333,70.27,71,11,10.63,AU,1683407281
2,mirnyy,62.5353,113.9611,27.46,93,100,16.2,RU,1683407282
3,extrema,-22.8547,-46.3183,65.43,92,100,2.35,BR,1683407282
4,port-aux-francais,-49.35,70.2167,39.85,60,77,29.57,TF,1683407282
5,adamstown,-25.066,-130.1015,72.28,78,100,8.68,PN,1683407116
6,callao,-12.0667,-77.15,75.49,69,0,13.8,PE,1683407282
7,college,64.8569,-147.8028,51.75,41,75,11.5,US,1683407283
8,waitangi,-43.9535,-176.5597,59.83,93,100,5.01,NZ,1683407283
9,puerto natales,-51.7236,-72.4875,50.45,53,20,21.85,CL,1683407156
10,port douglas,-16.4833,145.4667,75.47,86,99,8.93,AU,1683407284
11,talnakh,69.4865,88.3972,-1.97,98,74,1.72,RU,1683407284
12,bafq,31.6128,55.4107,73.63,13,0,3.09,IR,1683407284
13,ust-nera,64.5667,143.2,26.98,80,96,4.68,RU,1683407284
14,haiku-pauwela,20.9219,-156.3051,78.82,64,40,21.85,US,1683407284
15,ribeira grande,38.5167,-28.7,64.78,95,100,21.0,PT,1683407285
16,nar'yan-mar,67.6713,53.087,15.85,96,11,9.15,RU,1683407285
17,pionerskiy,54.9508,20.2275,46.74,52,39,17.38,RU,1683407285
18,alcains,39.9164,-7.4566,57.7,80,0,6.42,PT,1683407286
19,ushuaia,-54.8,-68.3,42.46,70,40,12.66,AR,1683407286
20,usogorsk,63.4106,48.6872,27.16,91,100,11.16,RU,1683407286
21,hithadhoo,-0.6,73.0833,83.17,75,100,18.7,MV,1683407286
22,albany,42.6001,-73.9662,71.58,37,34,9.98,US,1683407286
23,andalgala,-27.5819,-66.3165,57.92,55,79,4.27,AR,1683407287
24,blackmans bay,-43.0167,147.3167,37.72,87,36,6.6,AU,1683407287
25,jayapura,-2.5333,140.7,78.19,89,59,4.18,ID,1683407287
26,seaside,36.6111,-121.8516,66.36,68,75,16.11,US,1683407114
27,funtua,11.5233,7.3081,83.1,39,100,7.54,NG,1683407287
28,tsiombe,-25.3,45.4833,68.09,91,5,3.87,MG,1683407283
29,san ignacio de velasco,-16.3667,-60.95,74.19,86,98,3.89,BO,1683407288
30,bilibino,68.0546,166.4372,25.11,92,100,3.18,RU,1683407167
31,afaahiti,-17.75,-149.2833,84.07,80,69,18.25,PF,1683407288
32,bethel,41.3712,-73.414,72.73,37,0,8.05,US,1683407288
33,west island,-12.1568,96.8225,80.58,94,40,5.75,CC,1683407289
34,vadso,70.0744,29.7487,36.48,80,63,3.44,NO,1683406995
35,zeya,53.75,127.2667,41.7,75,11,1.03,RU,1683407289
36,longyearbyen,78.2186,15.6401,30.04,86,75,2.3,SJ,1683407289
37,grytviken,-54.2811,-36.5092,39.49,80,100,16.4,GS,1683407289
38,tura,25.5198,90.2201,73.04,69,1,5.21,IN,1683407290
39,walvis bay,-22.9575,14.5053,58.08,84,0,12.19,NA,1683407290
40,bredasdorp,-34.5322,20.0403,59.74,86,81,2.84,ZA,1683407290
41,olonkinbyen,70.9221,-8.7187,30.51,95,100,11.83,SJ,1683407290
42,kotlas,61.2611,46.6556,29.73,96,100,12.55,RU,1683407292
43,wynyard,-41.0,145.7167,37.98,68,1,6.8,AU,1683407292
44,hermanus,-34.4187,19.2345,58.8,88,99,7.05,ZA,1683407292
45,labuan,5.2767,115.2417,82.17,79,61,8.68,MY,1683407293
46,qaqortoq,60.7167,-46.0333,37.06,79,81,4.05,GL,1683407293
47,kimbe,-5.5502,150.1429,78.21,87,19,4.05,PG,1683407293
48,papatowai,-46.5619,169.4708,46.62,94,18,5.06,NZ,1683407293
49,lebu,-37.6167,-73.65,55.81,85,35,14.34,CL,1683407294
50,flin flon,54.7682,-101.865,57.83,45,65,11.79,CA,1683407294
51,fortaleza,-3.7227,-38.5247,84.22,78,0,8.05,BR,1683407294
52,ortaca,36.8294,28.7708,57.0,100,40,8.05,TR,1683407295
53,nagqu,31.5,92.0,27.99,67,100,4.94,CN,1683407116
54,jamestown,42.097,-79.2353,65.84,45,0,8.05,US,1683407295
55,homer,59.6425,-151.5483,45.03,69,100,5.75,US,1683407295
56,mejit,10.2753,170.8646,81.36,81,91,18.21,MH,1683407296
57,vilyuchinsk,52.9306,158.4028,41.27,82,27,7.18,RU,1683407296
58,kapuskasing,49.4169,-82.4331,60.89,50,98,3.74,CA,1683407296
59,badger,64.8,-147.5333,51.67,42,75,11.5,US,1683407296
60,edinburgh of the seven seas,-37.0676,-12.3116,59.92,74,100,14.85,SH,1683407296
61,rongelap,11.1635,166.8941,81.18,76,96,18.07,MH,1683407297
62,enewetak,11.3474,162.3373,81.36,82,90,18.05,MH,1683407297
63,conakry,9.538,-13.6773,81.37,82,41,6.93,GN,1683407226
64,ancud,-41.8697,-73.8203,53.11,95,100,6.89,CL,1683407297
65,kavaratti,10.5669,72.642,83.23,68,99,8.14,IN,1683407298
66,nicoya,10.1483,-85.452,94.95,37,94,11.45,CR,1683407298
67,hadibu,12.65,54.0333,83.08,79,7,4.81,YE,1683407298
68,gebeit,21.0667,36.3167,80.2,21,20,4.79,SD,1683407298
69,ust-tsilma,65.441,52.1498,21.81,95,98,10.22,RU,1683407298
70,novomikhaylovskiy,44.2581,38.8578,61.32,80,100,10.71,RU,1683407299
71,arraial do cabo,-22.9661,-42.0278,75.06,83,0,3.44,BR,1683407219
72,hasaki,35.7333,140.8333,69.22,82,100,21.52,JP,1683407299
73,mateur,37.0405,9.6656,63.81,69,88,6.8,TN,1683407299
74,ilulissat,69.2167,-51.1,32.02,86,100,6.91,GL,1683407299
75,katsuura,35.1333,140.3,68.97,87,100,28.19,JP,1683407300
76,constantia,44.1833,28.65,52.7,69,18,14.32,RO,1683407300
77,sodra sandby,56.5667,16.6167,37.26,85,1,12.01,SE,1683407300
78,invercargill,-46.4,168.35,47.01,95,36,3.0,NZ,1683407301
79,barra do garcas,-15.89,-52.2567,91.98,43,20,0.43,BR,1683407066
80,chibougamau,49.9168,-74.3659,61.2,33,13,13.47,CA,1683407301
81,deqen,29.9618,90.7188,40.41,64,82,5.28,CN,1683407301
82,hawaiian paradise park,19.5933,-154.9731,80.11,70,40,11.5,US,1683407301
83,chonchi,-42.6128,-73.8092,53.11,91,100,4.0,CL,1683407302
84,khowy,38.5503,44.9521,61.57,57,95,2.26,IR,1683407302
85,port elizabeth,-33.918,25.5701,61.32,89,14,10.0,ZA,1683407302
86,esikhaleni,-28.871,31.8996,74.52,69,80,5.91,ZA,1683407302
87,cuamba,-14.8031,36.5372,62.2,81,15,3.58,MZ,1683407302
88,tazacorte,28.629,-17.9293,70.77,86,20,20.71,ES,1683407303
89,ayr,55.4627,-4.6339,53.51,87,40,0.0,GB,1683407303
90,oriximina,-1.7656,-55.8661,82.47,79,90,2.66,BR,1683407210
91,konarka,19.9,86.1167,81.0,86,9,10.56,IN,1683407180
92,whitehorse,60.7161,-135.0538,56.1,43,97,8.99,CA,1683407303
93,klyuchi,52.2667,79.1667,57.36,35,2,7.72,RU,1683407304
94,vernon,50.2581,-119.2691,55.76,78,100,7.0,CA,1683407304
95,taltal,-25.4,-70.4833,63.23,72,3,6.2,CL,1683407304
96,petropavlovsk-kamchatsky,53.0452,158.6483,39.79,56,40,15.66,RU,1683407304
97,palikir - national government center,6.9248,158.1611,82.53,75,100,9.15,FM,1683407304
98,aasiaat,68.7098,-52.8699,30.72,94,100,5.17,GL,1683407305
99,salym,60.0625,71.4789,50.81,60,90,6.4,RU,1683407305
100,anadyr,64.75,177.4833,30.7,69,20,6.71,RU,1683407305
101,guerrero negro,27.9769,-114.0611,66.4,54,7,19.55,MX,1683407305
102,lazaro cardenas,17.9583,-102.2,88.2,55,2,11.68,MX,1683407305
103,stanley,54.868,-1.6985,55.53,90,20,3.44,GB,1683407306
104,howard springs,-12.497,131.047,78.71,77,12,6.64,AU,1683407306
105,pasuquin,18.3328,120.6177,78.75,89,20,3.44,PH,1683407306
106,tromso,69.6496,18.957,37.42,60,40,9.22,NO,1683407306
107,qui nhon,13.7667,109.2333,79.83,88,100,5.21,VN,1683407307
108,east london,-33.0153,27.9116,65.23,77,87,10.94,ZA,1683407125
109,nemuro,43.3236,145.575,37.35,77,100,7.47,JP,1683407307
110,grajau,-5.8194,-46.1386,75.74,93,98,3.49,BR,1683407307
111,sao tome,0.3365,6.7273,81.16,77,98,8.79,ST,1683407308
112,barcelos,41.5388,-8.6151,64.85,95,65,3.94,PT,1683407308
113,cabedelo,-6.9811,-34.8339,79.47,77,13,11.41,BR,1683407255
114,san juan bautista,-14.0108,-75.7358,81.12,51,6,11.41,PE,1683407308
115,simsbury center,41.8809,-72.8112,73.58,34,20,8.05,US,1683407308
116,udachny,66.4167,112.4,13.06,86,75,15.7,RU,1683407309
117,kenai,60.5544,-151.2583,46.49,65,75,9.22,US,1683407309
118,yellowknife,62.456,-114.3525,64.56,36,0,21.0,CA,1683407269
119,labytnangi,66.6572,66.4183,18.63,92,98,12.53,RU,1683407309
120,port lincoln,-34.7333,135.8667,54.0,62,78,10.33,AU,1683407030
121,bandar lampung,-5.4254,105.258,75.25,95,100,4.23,ID,1683407310
122,tabou,4.423,-7.3528,80.51,83,47,7.9,CI,1683407310
123,essaouira,31.5125,-9.77,64.99,86,0,23.82,MA,1683407310
124,puerto ayora,-0.7393,-90.3518,87.76,91,96,10.0,EC,1683407310
125,aripuana,-9.1667,-60.6333,77.38,95,99,1.79,BR,1683407311
126,gizo,-8.103,156.8419,82.78,79,75,5.12,SB,1683407311
127,pontes e lacerda,-15.2261,-59.3353,77.94,79,98,3.65,BR,1683407311
128,mount isa,-20.7333,139.5,65.97,32,99,11.5,AU,1683407311
129,baissa,7.2333,10.6333,73.71,94,80,2.57,NG,1683407311
130,trairi,-3.2778,-39.2689,79.5,80,13,8.86,BR,1683407036
131,crane,31.3974,-102.3501,90.82,10,96,7.74,US,1683407312
132,sur,22.5667,59.5289,83.37,58,0,11.32,OM,1683407312
133,qamdo,31.1667,97.2333,29.08,73,1,4.45,CN,1683407312
134,hastings,50.8552,0.5729,56.98,42,100,10.18,GB,1683407313
135,isafjordur,66.0755,-23.124,43.3,90,100,5.73,IS,1683407313
136,acapulco de juarez,16.8634,-99.8901,89.42,70,0,9.22,MX,1683407290
137,weiser,44.251,-116.9693,64.6,45,97,1.99,US,1683407313
138,iqaluit,63.7506,-68.5145,31.69,82,99,28.99,CA,1683407313
139,suva,-18.1416,178.4415,76.48,94,75,8.05,FJ,1683407133
140,margaret river,-33.95,115.0667,54.54,89,100,13.35,AU,1683407156
141,zaqatala,41.6336,46.6433,57.67,77,40,6.91,AZ,1683407314
142,vorgashor,67.5833,63.95,11.79,95,99,7.43,RU,1683407314
143,livingston,55.9029,-3.5226,52.12,98,100,5.75,GB,1683407316
144,rio grande,-32.035,-52.0986,66.31,99,100,8.79,BR,1683407316
145,homestead meadows south,31.811,-106.1643,83.71,9,23,14.58,US,1683407316
146,la paz,-16.5,-68.15,51.78,61,75,8.05,BO,1683407316
147,bel ombre,-4.6167,55.4167,83.05,71,88,13.82,SC,1683407317
148,cestos city,5.46,-9.5828,81.95,80,73,7.94,LR,1683407317
149,falam,22.9167,93.6833,61.63,84,36,4.36,MM,1683407317
150,cidreira,-30.1811,-50.2056,71.02,95,100,9.93,BR,1683407317
151,paciran,-6.8767,112.3761,77.67,90,86,5.86,ID,1683407318
152,buzdyak,54.5833,54.55,45.03,88,100,11.7,RU,1683407318
153,puerto santa,-8.9906,-78.6456,75.24,78,19,11.77,PE,1683407318
154,puerto armuelles,8.2833,-82.8667,86.29,65,100,9.33,PA,1683407318
155,chaman,30.9236,66.4512,63.95,19,0,5.91,PK,1683407318
156,gamba,-2.65,10.0,78.51,87,87,3.47,GA,1683407319
157,avarua,-21.2078,-159.775,82.45,89,86,6.91,CK,1683407319
158,kapa'a,22.0752,-159.319,79.12,67,100,20.71,US,1683407319
159,georgetown,5.4112,100.3354,80.55,89,20,3.44,MY,1683407157
160,miandrivazo,-19.5167,45.4667,72.14,81,0,1.63,MG,1683407320
161,sechura,-5.5569,-80.8222,82.94,62,67,12.5,PE,1683407320
162,weno,7.4515,151.8468,84.15,79,100,5.75,FM,1683407320
163,mana,5.6592,-53.7767,81.5,78,100,9.62,GF,1683407320
164,puerto aysen,-45.4,-72.7,52.68,90,15,3.69,CL,1683407320
165,thompson,55.7435,-97.8558,60.96,36,40,4.61,CA,1683407059
166,kununurra,-15.7667,128.7333,78.78,50,29,12.66,AU,1683407321
167,heihe,50.2441,127.4902,37.98,39,11,3.56,CN,1683407321
168,selfoss,63.9331,-20.9971,50.04,73,100,8.5,IS,1683407321
169,sola,-13.8833,167.55,81.75,77,25,12.88,VU,1683407321
170,nova sintra,14.8667,-24.7167,67.71,80,2,27.36,CV,1683407322
171,kingston,17.997,-76.7936,85.21,93,87,1.99,JM,1683407322
172,plastun,44.7561,136.2939,42.46,66,12,2.53,RU,1683407322
173,saldanha,-33.0117,17.9442,60.76,90,10,2.91,ZA,1683407322
174,sassandra,4.95,-6.0833,81.07,83,22,9.95,CI,1683407322
175,nurota,40.5614,65.6886,54.09,58,16,5.73,UZ,1683407323
176,morondava,-20.2833,44.2833,71.29,82,0,8.63,MG,1683407323
177,ulanhot,46.0833,122.0833,46.26,71,61,7.2,CN,1683407299
178,makamba,-4.1348,29.804,62.49,94,8,3.24,BI,1683407323
179,howrah,22.5892,88.3103,84.2,84,20,9.22,IN,1683407323
180,castillos,-34.1667,-53.8333,66.33,98,100,8.37,UY,1683407323
181,iskateley,67.6803,53.1512,15.71,96,10,9.04,RU,1683407324
182,lihue,21.9789,-159.3672,78.39,67,100,20.71,US,1683407131
183,taroa,8.7058,171.2275,82.02,82,97,16.17,MH,1683407324
184,la passe,45.5549,-0.8967,62.83,94,11,8.48,FR,1683407324
185,fale old settlement,-9.3852,-171.2468,84.0,77,8,14.43,TK,1683407324
186,saacow,1.6279,42.4407,78.69,77,66,11.39,SO,1683407325
187,kone,-21.0595,164.8658,73.53,77,0,1.81,NC,1683407115
188,kasempa,-13.4584,25.8338,60.01,63,2,4.94,ZM,1683407325
189,utrik,11.2278,169.8474,80.92,78,97,16.98,MH,1683407325
190,igarka,67.4667,86.5833,11.61,89,25,6.35,RU,1683407325
191,guano,-1.5833,-78.6333,57.56,74,100,6.82,EC,1683407326
192,hammerfest,70.6634,23.6821,36.05,69,100,5.75,NO,1683407326
193,isangel,-19.55,169.2667,79.77,78,9,4.52,VU,1683407267
194,nuuk,64.1835,-51.7216,34.41,80,75,16.11,GL,1683407326
195,pimentel,-6.8367,-79.9342,82.69,61,75,18.41,PE,1683407326
196,balabac,7.9868,117.0645,80.62,82,99,7.63,PH,1683407327
197,carbonear,47.7332,-53.2148,40.6,85,98,10.94,CA,1683407327
198,berdigestyakh,62.0989,126.6992,34.61,100,100,7.31,RU,1683407327
199,balikpapan,-1.2675,116.8289,77.99,94,20,3.44,ID,1683407327
200,sinsang-ni,39.6503,127.4058,48.72,60,100,2.19,KP,1683407327
201,jianshui,23.6363,102.8264,69.71,55,0,4.9,CN,1683407327
202,emmett,43.8735,-116.4993,63.77,54,95,1.99,US,1683407084
203,pervomayskoye,43.919,46.7102,51.39,94,97,8.25,RU,1683407328
204,mahalapye,-23.1041,26.8142,69.6,40,4,9.24,BW,1683407328
205,kerrville,30.0474,-99.1403,89.46,63,75,13.8,US,1683407073
206,kargasok,59.0556,80.8572,51.98,85,67,8.03,RU,1683407328
207,quellon,-43.1167,-73.6167,53.85,82,0,10.36,CL,1683407329
208,badr hunayn,23.7829,38.7905,83.52,28,27,1.97,SA,1683407314
209,punta arenas,-53.15,-70.9167,46.51,66,20,17.27,CL,1683407052
210,lorengau,-2.0226,147.2712,82.4,78,22,5.08,PG,1683407329
211,pangoa,-12.1167,-73.0,79.07,71,62,3.71,PE,1683407329
212,fortuna,40.5982,-124.1573,60.93,63,22,4.0,US,1683407330
213,morant bay,17.8815,-76.4093,81.72,69,56,12.62,JM,1683407330
214,sitka,57.0531,-135.33,49.89,62,75,9.22,US,1683407330
215,atafu village,-8.5421,-172.5159,84.2,73,0,13.73,TK,1683407330
216,maile,-38.9466,-72.3727,59.61,67,24,4.25,CL,1683407330
217,port saint john's,-31.6229,29.5448,67.91,87,100,7.58,ZA,1683407331
218,ciudad bolivar,8.1222,-63.5497,93.25,38,77,18.63,VE,1683407331
219,bengkulu,-3.8004,102.2655,77.04,88,100,8.75,ID,1683407331
220,kingscliff,-28.2667,153.5667,64.2,77,96,8.05,AU,1683407331
221,abalak,58.1286,68.5944,55.47,43,57,6.87,RU,1683407331
222,sao raimundo nonato,-9.0153,-42.6994,80.69,55,88,4.47,BR,1683407332
223,lautoka,-17.6167,177.4667,76.86,88,20,5.75,FJ,1683407332
224,curuca,-0.7289,-47.8481,77.58,94,34,4.72,BR,1683407332
225,amga,60.8953,131.9608,35.17,95,98,6.71,RU,1683407332
226,northam,51.0333,-4.2167,54.39,95,92,8.34,GB,1683407332
227,vakarai,55.6035,23.8213,37.92,60,6,7.67,LT,1683407333
228,gokarna,14.55,74.3167,81.07,76,65,5.99,IN,1683407180
229,arkhangel'sk,64.5401,40.5433,25.38,87,67,4.81,RU,1683407333
230,yenotayevka,47.2456,47.0281,61.92,60,99,8.59,RU,1683407333
231,tiksi,71.6872,128.8694,3.42,99,93,5.14,RU,1683407333
232,uturoa,-16.7333,-151.4333,81.95,77,100,18.97,PF,1683407333
233,wailua homesteads,22.0669,-159.378,77.79,67,100,20.71,US,1683407334
234,caconda,-13.7333,15.0667,65.79,64,97,1.1,AO,1683407334
235,pak phanang,8.3511,100.202,82.06,79,95,9.04,TH,1683407334
236,okha,53.5739,142.9478,33.57,79,52,8.72,RU,1683407335
237,dwarka,22.2394,68.9678,80.62,79,3,12.8,IN,1683407335
238,ambodifotatra,-16.9833,49.85,77.65,78,18,7.72,MG,1683407256
239,fort bragg,35.139,-79.006,82.45,37,75,8.05,US,1683407335
240,cockburn town,21.4612,-71.1419,79.48,77,3,15.08,TC,1683407335
241,camabatela,-8.1881,15.375,64.69,90,50,2.68,AO,1683407335
242,recco,44.3623,9.1435,64.47,81,86,3.36,IT,1683407336
243,waingapu,-9.6567,120.2641,76.82,89,13,8.21,ID,1683407336
244,san jose,37.3394,-121.895,64.58,70,75,8.99,US,1683407326
245,kailua-kona,19.6406,-155.9956,82.36,79,40,11.5,US,1683407336
246,kayangel,8.0823,134.7173,82.51,77,62,9.6,PW,1683407336
247,tselina,46.5338,41.0328,57.52,78,100,18.1,RU,1683407337
248,vorkuta,67.5,64.0,12.16,96,99,7.34,RU,1683407337
249,minas de marcona,-15.2119,-75.1103,66.02,69,30,13.35,PE,1683407337
250,bentiu,9.2333,29.8333,90.66,35,27,5.41,SS,1683407337
251,ermelo,-26.5333,29.9833,54.63,69,9,1.9,ZA,1683407337
252,arkalyk,50.2486,66.9114,60.49,36,0,10.54,KZ,1683407339
253,stolac,43.0844,17.9575,62.38,80,59,3.56,BA,1683407339
254,kuytun,54.3419,101.5036,45.21,95,73,5.86,RU,1683407345
255,luderitz,-26.6481,15.1594,55.96,82,0,6.22,NA,1683407324
256,nova vicosa,-17.8919,-39.3719,76.21,76,0,10.54,BR,1683407207
257,santa ines,-3.6667,-45.38,79.21,86,68,2.17,BR,1683407224
258,tazovsky,67.4667,78.7,4.75,97,78,5.44,RU,1683407345
259,chinde,26.8418,88.0763,63.5,48,4,5.79,NP,1683407346
260,tadine,-21.55,167.8833,77.72,76,37,8.95,NC,1683407346
261,tolanaro,-25.0319,46.9987,69.82,92,81,12.97,MG,1683407244
262,lijiang,26.8688,100.2207,46.0,74,0,5.41,CN,1683407346
263,tarawa,1.419,172.984,84.29,79,75,5.75,KI,1683407346
264,maintirano,-18.0667,44.0167,76.19,76,0,8.79,MG,1683407347
265,north platte,41.1239,-100.7654,75.11,46,0,4.61,US,1683407072
266,alaghsas,17.0187,8.0168,88.7,10,2,14.27,NE,1683407337
267,kruisfontein,-34.0033,24.7314,56.88,91,29,6.51,ZA,1683407347
268,rio gallegos,-51.6226,-69.2181,50.05,43,20,16.11,AR,1683407347
269,port mathurin,-19.6833,63.4167,78.73,71,50,19.06,MU,1683407348
270,conception bay south,47.4999,-52.9981,39.92,88,100,9.66,CA,1683407348
271,kosh-agach,50.0,88.6667,33.39,50,100,3.24,RU,1683407348
272,sarmiento,-45.5882,-69.07,60.76,50,29,11.61,AR,1683407348
273,jiazi,22.8779,116.067,78.44,93,100,8.86,CN,1683407349
274,linhares,-19.3911,-40.0722,72.46,83,7,5.3,BR,1683407349
275,mount gambier,-37.8333,140.7667,42.98,84,96,6.96,AU,1683407332
276,kristiansund,63.1115,7.732,48.25,56,49,3.44,NO,1683407349
277,hamilton,39.1834,-84.5333,77.58,51,100,10.36,US,1683407061
278,edson,53.5835,-116.4356,60.73,39,60,17.36,CA,1683407350
279,al qusiyah,27.4402,30.8184,72.77,35,0,8.43,EG,1683407350
280,itaituba,-4.2761,-55.9836,78.67,96,33,2.59,BR,1683407350
281,zahedan,29.4963,60.8629,64.31,25,0,4.61,IR,1683407350
282,milton,34.1322,-84.3007,76.01,65,92,1.01,US,1683407350
283,ksar chellala,35.2122,2.3189,62.96,60,100,13.35,DZ,1683407351
284,keflavik,64.0049,-22.5624,48.63,87,75,3.44,IS,1683407351
285,gurupi,-11.7292,-49.0686,79.68,65,100,5.26,BR,1683407335
286,shalqar,47.8333,59.6,60.76,23,100,4.97,KZ,1683407352
287,coahuayana de hidalgo,18.7,-103.6583,92.57,43,0,8.12,MX,1683407352
288,gadzhiyevo,69.2551,33.3362,23.9,95,31,4.9,RU,1683407352
289,asadabad,34.7824,48.1185,51.75,31,3,2.64,IR,1683407352
290,akdepe,42.0551,59.3788,59.23,62,78,7.74,TM,1683407352
291,yima,34.7381,111.8839,51.57,79,100,3.62,CN,1683407122
292,malpe,13.35,74.7167,83.5,74,60,5.77,IN,1683407353
293,bayganin,48.6947,55.8742,57.79,30,100,3.29,KZ,1683407353
294,praia da vitoria,38.7333,-27.0667,65.75,95,99,22.39,PT,1683407353
295,susuman,62.7833,148.1667,24.08,79,27,1.81,RU,1683407354
296,palu,-0.8917,119.8707,77.13,94,100,2.37,ID,1683407354
297,emerald,-23.5333,148.1667,64.4,87,100,3.04,AU,1683407354
298,yamada,39.4667,141.95,47.08,96,100,11.18,JP,1683407355
299,kelibia,36.8476,11.0939,64.18,76,33,11.97,TN,1683407355
300,kalmunai,7.4167,81.8167,78.64,84,100,3.6,LK,1683407355
301,saint-pierre,-21.3393,55.4781,75.56,83,100,5.75,RE,1683407355
302,cascais,38.6979,-9.4215,65.05,82,79,13.0,PT,1683407355
303,chiang mai,18.75,99.0,82.47,69,0,3.44,TH,1683407356
304,naracoorte,-36.9579,140.7383,42.82,80,59,3.89,AU,1683407356
305,rockford,42.2711,-89.094,77.25,53,75,16.11,US,1683407237
306,charikar,35.0136,69.1714,54.75,47,2,6.6,AF,1683407356
307,benguela,-12.5763,13.4055,77.9,85,28,4.36,AO,1683407356
308,inirida,3.8653,-67.9239,88.16,63,87,2.71,CO,1683407357
309,westport,41.1415,-73.3579,74.28,33,0,13.8,US,1683407349
310,"laikit, laikit ii (dimembe)",1.4792,124.9735,72.45,100,40,2.3,ID,1683407357
311,bamboo flat,11.7,92.7167,83.43,78,63,7.54,IN,1683407357
312,graham,47.0529,-122.2943,59.88,83,100,1.01,US,1683407357
313,north bend,43.4065,-124.2243,60.24,83,100,16.11,US,1683407358
314,saint-francois,46.4154,3.9054,62.04,77,0,4.61,FR,1683407358
315,dudinka,69.4058,86.1778,-6.29,100,100,0.83,RU,1683407358
316,filakovo,48.2676,19.8247,55.4,90,100,3.13,SK,1683407358
317,ratlam,23.3167,75.0667,85.1,39,100,10.49,IN,1683407359
318,diebougou,10.9667,-3.25,91.36,33,83,6.42,BF,1683407359
319,villeneuve-sur-yonne,48.0825,3.2969,59.16,86,100,6.64,FR,1683407359
320,miracema do tocantins,-9.5618,-48.3967,81.63,71,79,1.19,BR,1683407359
321,shanga,11.2106,4.5788,88.38,38,74,4.52,NG,1683407359
322,hami,42.8,93.45,45.95,56,5,9.71,CN,1683407360
323,lompoc,34.6391,-120.4579,70.79,67,75,14.0,US,1683407360
324,kencong,-8.2833,113.3667,74.84,91,94,2.44,ID,1683407360
325,devon,50.75,-3.75,55.42,89,83,6.89,GB,1683407360
326,fort-shevchenko,44.5086,50.263,58.57,76,5,2.93,KZ,1683407353
327,veinticinco de mayo,-35.4323,-60.1727,61.99,94,100,5.64,AR,1683407361
328,st. john's,47.5649,-52.7093,40.15,90,100,5.01,CA,1683407339
329,grand-lahou,5.1367,-5.0242,81.99,82,26,9.06,CI,1683407361
330,papao,-17.75,-149.55,85.68,79,65,19.15,PF,1683407362
331,marsh harbour,26.5412,-77.0636,75.33,76,48,19.93,BS,1683407124
332,yuzhno-kurilsk,44.0306,145.8556,36.3,79,100,5.84,RU,1683407362
333,collie,-33.3667,116.15,53.51,94,100,9.06,AU,1683407362
334,holualoa,19.6228,-155.9522,78.64,79,40,11.5,US,1683407363
335,port alfred,-33.5906,26.891,59.18,92,43,1.01,ZA,1683407363
336,inyonga,-6.7167,32.0667,65.05,91,7,3.74,TZ,1683407363
337,gelendost,38.1208,31.0153,53.56,80,98,4.23,TR,1683407364
338,junction city,39.0286,-96.8314,93.0,29,0,11.5,US,1683407172
339,betare oya,5.6,14.0833,68.7,96,87,2.93,CM,1683407364
340,kudymkar,59.0173,54.656,39.0,92,100,8.41,RU,1683407364
341,coquimbo,-29.9533,-71.3436,60.53,72,75,10.36,CL,1683407182
342,kolonia,50.9333,6.95,60.96,87,0,2.3,DE,1683407235
343,chengzhong,30.95,113.55,55.51,70,100,14.47,CN,1683407365
344,iskushuban,10.2837,50.23,86.2,60,98,7.38,SO,1683407365
345,luang namtha,20.9497,101.4011,76.62,59,1,1.74,LA,1683407365
346,caleta de carquin,-11.0925,-77.6267,74.98,76,16,13.42,PE,1683407365
347,remire-montjoly,4.9167,-52.2667,82.44,78,75,8.05,GF,1683407316
348,guinticgan,11.5641,123.1236,81.19,77,45,2.91,PH,1683407366
349,mawu,29.5923,107.3139,64.31,96,96,0.72,CN,1683407366
350,wad az zaki,14.4619,32.2065,92.01,7,5,9.26,SD,1683407366
351,pisco,-13.7,-76.2167,73.45,73,100,10.36,PE,1683407366
352,taungoo,18.9333,96.4333,80.64,73,5,3.4,MM,1683407257
353,energetik,51.7445,58.7934,57.45,41,98,4.32,RU,1683407367
354,ust'-charyshskaya pristan',52.3934,83.6635,53.02,66,3,4.54,RU,1683407367
355,soe,-9.8607,124.284,65.44,94,62,4.43,ID,1683407367
356,stanisic,45.94,19.1653,59.83,71,39,5.66,RS,1683407367
357,palmas,-10.2128,-48.3603,85.87,66,20,4.61,BR,1683407315
358,mogocha,53.7333,119.7667,34.45,53,8,3.09,RU,1683407368
359,mugia,43.1041,-9.2179,61.92,93,100,7.58,ES,1683407368
360,san andres,12.5847,-81.7006,87.82,62,20,13.8,CO,1683407368
361,tambura,5.6,27.4667,72.95,77,69,3.83,SS,1683407368
362,pico truncado,-46.7949,-67.9573,56.61,58,57,15.95,AR,1683407369
363,colonia,50.9333,6.95,60.96,87,0,2.3,DE,1683407369
364,fukuecho,32.6881,128.8419,62.28,94,100,21.59,JP,1683407369
365,san patricio,28.017,-97.5169,89.19,63,100,17.69,US,1683407369
366,sopron,47.685,16.5905,58.66,82,100,5.44,HU,1683407370
367,oranjemund,-28.55,16.4333,54.95,89,0,6.33,NA,1683407370
368,mitsamiouli,-11.3847,43.2844,80.55,74,2,6.51,KM,1683407370
369,la'ie,21.6477,-157.9253,82.36,71,99,21.27,US,1683407370
370,antigo,45.1402,-89.1523,56.12,93,100,12.66,US,1683407370
371,omutinskiy,56.4745,67.6709,56.95,35,14,8.63,RU,1683407371
372,angaur state,6.906,134.13,82.62,69,100,7.74,PW,1683407371
373,san fernando del valle de catamarca,-28.4696,-65.7852,73.06,48,34,3.0,AR,1683407371
374,wichian buri,15.6578,101.106,87.12,56,86,7.67,TH,1683407371
375,miles city,46.4083,-105.8406,58.17,72,0,17.27,US,1683407085
376,fisterra,42.9049,-9.2629,61.75,93,99,8.43,ES,1683407372
377,cuyo,10.8525,121.0086,83.19,76,88,7.47,PH,1683407372
378,ghat,24.9647,10.1728,81.23,15,29,8.63,LY,1683407372
379,novaya igirma,57.1334,103.9112,28.71,98,31,3.76,RU,1683407372
380,dakhla,23.6848,-15.958,66.63,82,0,26.71,EH,1683407372
381,ornskoldsvik,63.2909,18.7153,31.15,100,57,1.14,SE,1683407373
382,taco pozo,-25.6167,-63.2833,68.23,60,52,6.62,AR,1683407373
383,rosalie,15.3667,-61.2667,83.1,70,4,11.43,DM,1683407373
384,kiunga,-6.1219,141.2906,73.0,99,83,2.28,PG,1683407373
385,san antonio de pale,-1.4014,5.6325,82.31,73,100,3.24,GQ,1683407374
386,beroroha,-21.6667,45.1667,71.83,64,54,0.36,MG,1683407374
387,cukai,4.25,103.4167,78.51,90,100,3.65,MY,1683407374
388,alvaraes,-3.2208,-64.8042,82.27,94,98,3.36,BR,1683407374
389,ineu,46.4333,21.85,57.92,78,76,5.01,RO,1683407374
390,khandyga,62.6667,135.6,35.47,94,100,9.46,RU,1683407375
391,flying fish cove,-10.4217,105.6791,80.28,89,75,6.91,CX,1683407375
392,kupang,-10.1667,123.5833,77.77,86,36,9.13,ID,1683407375
393,timbuktu,16.7735,-3.0074,95.23,15,52,7.07,ML,1683407375
394,ola,59.5833,151.2833,33.82,81,10,2.86,RU,1683407375
395,brak,27.5496,14.2714,74.3,18,0,5.14,LY,1683407376
396,coruripe,-10.1256,-36.1756,78.01,78,1,5.93,BR,1683407376
397,burela de cabo,43.65,-7.4,61.18,93,18,6.93,ES,1683407376
398,lucapa,-8.4192,20.7447,71.38,73,55,1.61,AO,1683407376
399,ibiza,38.9088,1.433,67.93,71,0,8.05,ES,1683407273
400,bhuban,20.8833,85.8333,82.45,73,0,1.63,IN,1683407238
401,happy valley-goose bay,53.3168,-60.3315,48.92,45,100,3.69,CA,1683407336
402,nogliki,51.8333,143.1667,35.35,74,100,7.16,RU,1683407377
403,rumonge,-3.9736,29.4386,71.08,87,16,2.66,BI,1683407377
404,saipan,15.1355,145.701,81.64,100,75,13.8,MP,1683407373
405,nevada,39.2502,-116.7512,41.61,47,42,10.87,US,1683407336
406,antsiranana,-12.2787,49.2917,75.65,82,1,11.65,MG,1683407256
407,al jawf,29.5,38.75,71.46,27,0,15.68,SA,1683407378
408,sona,45.4388,10.8255,67.12,68,0,5.75,IT,1683407378
409,ulladulla,-35.35,150.4667,51.06,87,97,9.66,AU,1683407378
410,alta gracia,-31.6529,-64.4283,66.88,66,41,4.63,AR,1683407212
411,el calafate,-50.3408,-72.2768,45.95,69,1,7.25,AR,1683407379
412,ta`u,-14.2336,-169.5144,82.09,73,10,11.01,AS,1683407379
413,nokia,61.4667,23.5,36.54,62,0,3.44,FI,1683407379
414,baiao,-2.7906,-49.6717,78.3,90,100,2.06,BR,1683407379
415,nejo,9.5,35.5,67.69,65,100,2.68,ET,1683407379
416,farafangana,-22.8167,47.8333,72.57,85,100,3.8,MG,1683407380
417,berezovyy,51.6667,135.7,41.61,74,100,2.75,RU,1683407380
418,egilsstadir,65.2653,-14.3948,48.76,92,94,6.98,IS,1683407380
419,nouadhibou,20.931,-17.0347,71.58,64,0,21.85,MR,1683407380
420,tuy hoa,13.0833,109.3,79.95,86,100,3.51,VN,1683407380
421,rikaze,29.25,88.8833,41.65,42,0,3.69,CN,1683407456
422,conceicao do araguaia,-8.2578,-49.2647,78.35,84,69,1.92,BR,1683407456
423,nyurba,63.2842,118.3319,30.61,96,91,12.03,RU,1683407456
424,manga,11.6636,-1.0731,91.74,37,90,19.46,BF,1683407456
425,cidade velha,14.9167,-23.6167,73.87,68,20,21.85,CV,1683407457
426,mount pleasant,32.7941,-79.8626,78.31,50,0,9.22,US,1683407253
427,las tablas,7.7667,-80.2833,91.17,99,99,23.29,PA,1683407457
428,port augusta,-32.5,137.7667,47.95,70,5,5.1,AU,1683407457
429,katsuren-haebaru,26.3369,127.8719,77.4,83,100,14.58,JP,1683407457
430,kittila,67.6647,24.8936,33.94,51,0,4.61,FI,1683407458
431,okhotsk,59.3833,143.3,37.17,75,10,2.55,RU,1683407458
432,champerico,14.3,-91.9167,89.65,63,82,13.8,GT,1683407458
433,guanare,9.0418,-69.7421,98.33,24,60,2.86,VE,1683407458
434,itatiba,-23.0058,-46.8389,77.52,80,100,4.81,BR,1683407459
435,sunland park,31.7965,-106.58,84.65,8,0,11.5,US,1683407459
436,monte alegre,-2.0078,-54.0692,82.04,77,83,3.36,BR,1683407459
437,olinda,-8.0089,-34.8553,82.13,69,40,11.5,BR,1683407459
438,zinjibar,13.1287,45.3807,89.53,56,97,4.27,YE,1683407459
439,akureyri,65.6835,-18.0878,53.6,60,22,3.13,IS,1683407459
440,cannonvale,-20.2833,148.7,74.59,72,88,6.89,AU,1683407460
441,weiz,47.2167,15.6167,56.32,96,98,3.24,AT,1683407460
442,sao vicente,-23.9631,-46.3919,78.98,26,100,1.99,BR,1683407318
443,sorong,-0.8833,131.25,79.36,87,60,4.7,ID,1683407460
444,gornopravdinsk,60.05,69.9,51.6,60,95,6.22,RU,1683407461
445,kretinga,55.8758,21.2508,40.75,45,0,5.75,LT,1683407461
446,aswan,24.0934,32.907,78.84,19,0,10.65,EG,1683407461
447,bestobe,52.4994,73.0975,58.03,27,17,2.48,KZ,1683407461
448,santa rosa del sur,7.9644,-74.0544,87.67,54,72,1.12,CO,1683407462
449,asau,46.4333,26.4,47.32,83,97,1.97,RO,1683407462
450,dazhou,31.2159,107.5009,62.33,94,100,7.67,CN,1683407462
451,conceicao da barra,-18.5933,-39.7322,75.02,74,0,9.37,BR,1683407462
452,sabang,5.8933,95.3214,81.66,80,100,16.96,ID,1683407463
453,tinajo,29.0788,-13.7081,68.88,73,40,21.85,ES,1683407463
454,new norfolk,-42.7826,147.0587,38.91,77,7,2.98,AU,1683407343
455,kavarna,43.4333,28.3333,58.28,73,56,12.73,BG,1683407463
456,tralee,52.2704,-9.7026,51.22,88,93,4.79,IE,1683407364
457,cabo san lucas,22.8909,-109.9124,82.71,53,75,6.91,MX,1683407286
458,harnosand,62.6323,17.9379,33.8,85,67,7.74,SE,1683407354
459,puerto baquerizo moreno,-0.9,-89.6,81.59,89,40,8.05,EC,1683407319
460,villa gesell,-37.2639,-56.973,64.06,97,100,15.97,AR,1683407464
461,bereznik,62.8551,42.7072,28.74,76,100,9.98,RU,1683407464
462,tres arroyos,-38.3739,-60.2798,56.05,90,100,5.46,AR,1683407464
463,abuyog,10.6667,125.05,75.47,89,91,1.83,PH,1683407540
464,tindouf,27.6711,-8.1474,73.49,30,91,19.48,DZ,1683407540
465,semirom,31.4167,51.5667,52.86,27,0,2.35,IR,1683407540
466,usinsk,65.9939,57.5281,23.94,81,100,22.59,RU,1683407540
467,xinzhi,36.4989,111.7047,51.13,82,91,5.75,CN,1683407542
468,midvagur,62.0511,-7.1939,47.23,93,100,21.85,FO,1683407542
469,alice springs,-23.7,133.8833,47.75,76,80,12.82,AU,1683407542
470,quintanar de la orden,39.5937,-3.0417,65.89,33,39,9.73,ES,1683407542
471,zouerate,22.7187,-12.4521,82.54,15,0,11.65,MR,1683407542
472,kizel,59.0471,57.6477,46.24,73,100,3.0,RU,1683407543
473,krasnokamensk,50.0979,118.0369,40.89,33,2,6.64,RU,1683407543
474,ulsteinvik,62.3432,5.8487,49.06,47,73,1.99,NO,1683407537
475,inebolu,41.9747,33.7608,55.87,69,100,1.68,TR,1683407543
476,east ballina,-28.8667,153.5833,60.01,98,98,6.11,AU,1683407543
477,amursk,50.2261,136.8994,42.6,60,17,1.03,RU,1683407544
478,port hueneme,34.1478,-119.1951,71.46,59,0,12.66,US,1683407318
479,ataq,14.5377,46.8319,77.13,59,95,8.7,YE,1683407546
480,ixtapa,20.7,-105.2,81.63,74,0,13.8,MX,1683407546
481,bubaque,11.2833,-15.8333,78.85,77,28,18.54,GW,1683407547
482,polyarnyy,69.1989,33.4478,26.4,93,32,4.68,RU,1683407547
483,preobrazheniye,42.9019,133.9064,43.57,62,80,2.21,RU,1683407547
484,jackson,42.4165,-122.8345,58.87,54,75,4.0,US,1683407489
485,akrehamn,59.2667,5.1833,50.0,75,18,4.61,NO,1683407548
486,touros,-5.1989,-35.4608,79.99,74,20,13.31,BR,1683407266
487,beau vallon,-20.4189,57.6953,75.22,78,91,14.74,MU,1683407548
488,coronel dorrego,-38.7187,-61.2873,57.61,61,100,6.17,AR,1683407548
489,ak-suu,42.4995,78.527,35.64,40,0,7.07,KG,1683407548
490,singaparna,-7.3515,108.111,71.6,95,90,0.11,ID,1683407549
491,taoyuan city,24.9937,121.297,79.0,82,75,4.61,TW,1683407549
492,severo-yeniseyskiy,60.3725,93.0408,27.95,98,96,3.71,RU,1683407549
493,serhiyivka,46.0272,30.3768,54.37,66,9,19.8,UA,1683407426
494,mount pearl,47.5166,-52.7813,39.33,89,100,5.01,CA,1683407549
495,kashary,49.04,41.0056,45.37,73,42,12.73,RU,1683407550
496,naze,28.3667,129.4833,70.79,90,100,13.44,JP,1683407550
497,fort st. john,56.2499,-120.8529,64.78,33,2,15.55,CA,1683407550
498,oncativo,-31.9135,-63.682,63.84,58,0,5.1,AR,1683407550
499,vila franca do campo,37.7167,-25.4333,64.81,93,97,11.45,PT,1683407551
500,hafar al-batin,28.4328,45.9708,84.24,10,3,12.66,SA,1683407551
501,jalalpur pirwala,29.5069,71.2192,83.52,23,0,7.25,PK,1683407551
502,laela,-8.5667,32.05,58.73,89,1,3.31,TZ,1683407551
503,novodvinsk,64.4165,40.8122,25.66,84,59,5.79,RU,1683407551
504,kuanda,56.3161,116.0806,38.14,80,100,1.63,RU,1683407552
505,wanning,18.8003,110.3967,81.07,91,30,13.13,CN,1683407552
506,mandalgovi,45.7625,106.2708,41.02,30,100,4.25,MN,1683407292
507,medicine hat,50.0501,-110.6683,54.03,69,100,23.02,CA,1683407333
508,olyokminsk,60.3736,120.4264,35.69,88,100,10.87,RU,1683407553
509,grand falls-windsor,48.9332,-55.6649,38.5,84,99,1.99,CA,1683407553
510,la chorrera,8.8803,-79.7833,90.64,58,99,13.18,PA,1683407553
511,terenos,-20.4422,-54.8603,82.11,69,40,4.61,BR,1683407340
512,abbeville,50.1,1.8333,59.49,97,100,4.14,FR,1683407454
513,beypazari,40.1675,31.9211,56.37,79,99,3.29,TR,1683407554
514,tahoua,14.8888,5.2692,89.67,25,52,1.16,NE,1683407554
515,grand baie,-20.0182,57.5802,75.45,79,14,4.0,MU,1683407554
516,kasongo-lunda,-6.4667,16.8167,72.91,91,92,0.76,CD,1683407554
517,san luis de la loma,17.2706,-100.8939,90.55,53,0,10.45,MX,1683407554
518,xicotencatl,23.0167,-98.8833,101.17,32,15,10.42,MX,1683407555
519,koh kong,11.6175,102.9806,82.45,83,73,3.18,KH,1683407555
520,whakatane,-37.9585,176.9854,65.77,93,100,5.99,NZ,1683407555
521,clawson,42.5334,-83.1463,69.69,51,40,10.36,US,1683407556
522,piney green,34.716,-77.3202,74.89,53,75,12.66,US,1683407556
523,maua,-23.6678,-46.4614,73.36,87,100,6.53,BR,1683407466
524,carolina,18.3808,-65.9574,90.18,63,20,13.8,PR,1683407349
525,auxonne,47.1926,5.3873,61.16,72,0,4.61,FR,1683407556
526,kamogawa,35.1,140.1,68.77,88,100,23.47,JP,1683407557
527,ak'ordat,15.5486,37.8867,89.73,29,33,3.58,ER,1683407557
528,murwara,23.85,80.4,83.61,30,3,4.16,IN,1683407557
529,stepnogorsk,52.3544,71.8869,58.8,32,2,5.64,KZ,1683407557
530,north branch,45.5113,-92.9802,62.71,95,100,3.0,US,1683407557
531,mont-laurier,46.5501,-75.4993,63.25,46,100,5.08,CA,1683407558
532,toulepleu guere,6.574,-8.4259,76.1,91,89,3.87,CI,1683407489
533,starkville,33.4504,-88.8184,82.06,78,40,9.22,US,1683407380
534,calabugao,8.4564,125.1589,65.91,97,96,0.67,PH,1683407558
535,vilyuysk,63.7553,121.6247,34.16,85,100,11.72,RU,1683407558
536,kourou,5.1552,-52.6478,82.45,80,100,7.76,GF,1683407559
537,merrill,45.1805,-89.6835,57.58,88,100,9.22,US,1683407559
538,nantucket,41.2835,-70.0995,69.85,51,0,17.27,US,1683407559
539,del rio,29.3627,-100.8968,88.12,59,0,8.05,US,1683407507
540,armacao de buzios,-22.7469,-41.8817,75.25,84,21,8.41,BR,1683407559
541,wenchang,30.904,118.4887,59.18,93,92,3.6,CN,1683407559
542,frontera,26.9333,-101.45,99.32,23,59,4.0,MX,1683407560
543,monze,-16.2833,27.4833,62.2,47,100,4.43,ZM,1683407560
544,tangalle,6.024,80.7911,77.23,90,100,11.45,LK,1683407560
545,belyy yar,53.6039,91.3903,42.69,65,0,2.24,RU,1683407560
546,camana,-16.6228,-72.7111,70.16,77,78,9.24,PE,1683407561
547,antalaha,-14.9003,50.2788,72.55,86,0,5.97,MG,1683407561
548,les cayes,18.2,-73.75,84.63,52,17,9.57,HT,1683407295
549,totskoye,52.5248,52.7623,50.41,86,61,8.61,RU,1683407561
550,el nido,11.1858,119.3956,80.4,84,100,8.25,PH,1683407561
551,ujae,8.9322,165.7642,81.75,82,69,17.47,MH,1683407561
552,kirensk,57.7853,108.1119,28.53,98,35,4.18,RU,1683407562
553,yemetsk,63.4721,41.7941,26.74,82,47,8.3,RU,1683407562
554,tsiroanomandidy,-18.7667,46.0333,63.34,80,0,1.07,MG,1683407562
555,terenozek,45.05,64.9833,61.59,40,3,4.59,KZ,1683407562
556,sherman,33.6357,-96.6089,87.24,64,40,14.97,US,1683407563
557,murzuq,25.9155,13.9184,74.01,19,0,7.34,LY,1683407563
558,la ronge,55.1001,-105.2842,50.97,53,78,8.3,CA,1683407563
559,evanston,42.0411,-87.6901,78.37,59,75,17.27,US,1683407381
560,harstad,68.799,16.5293,36.81,70,100,4.0,NO,1683407563
561,jabor,5.921,169.6434,82.78,78,67,10.76,MH,1683407564
562,magadan,59.5667,150.8,33.69,83,12,1.54,RU,1683407564
563,gaspe,48.8334,-64.4819,54.16,48,16,8.48,CA,1683407488
564,moyale,3.5167,39.0584,67.68,81,33,2.82,KE,1683407564
565,pimenta bueno,-11.6725,-61.1936,81.01,84,99,3.13,BR,1683407564
566,tete,-16.1564,33.5867,66.24,67,3,2.64,MZ,1683407564
567,kishtwar,33.3167,75.7667,49.21,78,100,4.85,IN,1683407565
568,malvan,16.0667,73.4667,81.01,71,54,5.3,IN,1683407565
569,saynshand,44.8824,110.1163,45.28,26,24,5.95,MN,1683407565
570,dunedin,-45.8742,170.5036,56.07,99,34,8.99,NZ,1683407400
